[
  {
    "name": "Anatole France \u00e9l\u00e9mentaire",
    "address": "5 Bis rue de la ferme, 92350 Le Plessis-Robinson",
    "type": "Ecole \u00e9l\u00e9mentaire",
    "lat": 48.78116,
    "long": 2.260406
  },
  {
    "name": "Association Formation Professionnelle des Adultes (AFPA)",
    "address": "4 rue de Sceaux, 92350 Le Plessis-Robinson",
    "type": "Emploi & insertion",
    "lat": 48.781884,
    "long": 2.274298
  },
  {
    "name": "Basket Park",
    "address": "All\u00e9e Robert-Debr\u00e9, 92350 Le Plessis-Robinson",
    "type": "Installations sportives",
    "lat": 48.77507,
    "long": 2.253444
  },
  {
    "name": "Biblioth\u00e8que - discoth\u00e8que municipale",
    "address": "2, rue Andr\u00e9-Le N\u00f4tre, 92350 Le Plessis-Robinson",
    "type": "Equipements culturels",
    "lat": 48.778791,
    "long": 2.254557
  },
  {
    "name": "Bois de la Garenne",
    "address": "Bois de la Garenne, 92350 Le Plessis-Robinson",
    "type": "Parcs et jardins",
    "lat": 48.786473,
    "long": 2.266501
  },
  {
    "name": "Bois du Ch\u00e2teau de la Solitude",
    "address": "Bois du Ch\u00e2teau de la Solitude, 92350 Le Plessis-Robinson",
    "type": "Parcs et jardins",
    "lat": 48.782878,
    "long": 2.257711
  },
  {
    "name": "Canisette Alli\u00e9s",
    "address": "Place des Alli\u00e9s, 92350 Le Plessis-Robinson",
    "type": "Environnement",
    "lat": 48.775055,
    "long": 2.258779
  },
  {
    "name": "Canisette Blum",
    "address": "Avenue L\u00e9on Blum, 92350 Le Plessis-Robinson",
    "type": "Environnement",
    "lat": 48.774428,
    "long": 2.253641
  },
  {
    "name": "Canisette Bois des Vall\u00e9es",
    "address": "Bois des Vall\u00e9es, 92350 Le Plessis-Robinson",
    "type": "Environnement",
    "lat": 48.783462,
    "long": 2.257163
  },
  {
    "name": "Canisette CES",
    "address": "Place Woking, 92350 Le Plessis-Robinson",
    "type": "Environnement",
    "lat": 48.783418,
    "long": 2.255342
  },
  {
    "name": "Canisette Fidel",
    "address": "Rue du Moulin Fidel, 92350 Le Plessis-Robinson",
    "type": "Environnement",
    "lat": 48.774464,
    "long": 2.259691
  },
  {
    "name": "Canisette Fourcade",
    "address": "Rue Fernand Fourcade, 92350 Le Plessis-Robinson",
    "type": "Environnement",
    "lat": 48.776405,
    "long": 2.259956
  },
  {
    "name": "Canisette Garenne",
    "address": "Rue de la Garenne, 92350 Le Plessis-Robinson",
    "type": "Environnement",
    "lat": 48.786473,
    "long": 2.266501
  },
  {
    "name": "Canisette Laennec",
    "address": "Rue du Loup Pendu, 92350 Le Plessis-Robinson",
    "type": "Environnement",
    "lat": 48.777186,
    "long": 2.253053
  },
  {
    "name": "Canisette Mairie",
    "address": "Chemin des Ecoles, 92350 Le Plessis-Robinson",
    "type": "Environnement",
    "lat": 48.781078,
    "long": 2.261887
  },
  {
    "name": "Canisette Malot",
    "address": "Avenue Florian Square Malot, 92350 Le Plessis-Robinson",
    "type": "Environnement",
    "lat": 48.781931,
    "long": 2.256907
  },
  {
    "name": "Canisette Pergaud",
    "address": "Rue Louis Pergaud, 92350 Le Plessis-Robinson",
    "type": "Environnement",
    "lat": 48.78919,
    "long": 2.269474
  },
  {
    "name": "Canisette Sertillanges",
    "address": "30 avenue du G\u00e9n\u00e9ral Leclerc, 92350 Le Plessis-Robinson",
    "type": "Environnement",
    "lat": 48.78302,
    "long": 2.264102
  },
  {
    "name": "Canisette STNA",
    "address": "Avenue du Plessis, 92350 Le Plessis-Robinson",
    "type": "Environnement",
    "lat": 48.782905,
    "long": 2.278578
  },
  {
    "name": "Canisette Thomas",
    "address": "Avenue Albert Thomas, 92350 Le Plessis-Robinson",
    "type": "Environnement",
    "lat": 48.773912,
    "long": 2.255125
  },
  {
    "name": "CAT Les Robinsons",
    "address": "29 rue Paul-Rivet, 92350 Le Plessis-Robinson",
    "type": "Emploi & insertion",
    "lat": 48.784171,
    "long": 2.25872
  },
  {
    "name": "Centre administratif municipal",
    "address": "3, place de la Mairie, 92350 Le Plessis-Robinson",
    "type": "Services municipaux",
    "lat": 48.782325,
    "long": 2.262225
  },
  {
    "name": "Centre municipal de Sant\u00e9 Robert-Fasquelle",
    "address": "1, villa des Cam\u00e9lias, 92350 Le Plessis-Robinson",
    "type": "Services municipaux",
    "lat": 48.779866,
    "long": 2.261439
  },
  {
    "name": "Cimeti\u00e8re",
    "address": "26, avenue Edouard-Herriot, 92350 Le Plessis-Robinson",
    "type": "Services municipaux",
    "lat": 48.782512,
    "long": 2.249818
  },
  {
    "name": "Cin\u00e9ma Gerard Philipe",
    "address": "2, rue Andr\u00e9-Le N\u00f4tre, 92350 Le Plessis-Robinson",
    "type": "Equipements culturels",
    "lat": 48.778791,
    "long": 2.254557
  },
  {
    "name": "Cit\u00e9 de l\u2019enfance",
    "address": "5 avenue du G\u00e9n\u00e9ral Leclerc, 92350 Le Plessis-Robinson",
    "type": "Enfance",
    "lat": 48.782889,
    "long": 2.262825
  },
  {
    "name": "Coll\u00e8ge Claude Nicolas Ledoux",
    "address": "Rue Claude Nicolas Ledoux, 92350 Le Plessis-Robinson",
    "type": "Coll\u00e8ges",
    "lat": 48.780258,
    "long": 2.254322
  },
  {
    "name": "Coll\u00e8ge Romain Rolland",
    "address": "Avenue Edouard-Herriot, 92350 Le Plessis-Robinson",
    "type": "Coll\u00e8ges",
    "lat": 48.782171,
    "long": 2.252244
  },
  {
    "name": "Complexe sportif Joliot-Curie",
    "address": "All\u00e9e Robert-Debr\u00e9, 92350 Le Plessis-Robinson",
    "type": "Installations sportives",
    "lat": 48.77507,
    "long": 2.253444
  },
  {
    "name": "Complexe sportif Louis-Hachette",
    "address": "Avenue Paul Langevin, 92350 Le Plessis-Robinson",
    "type": "Installations sportives",
    "lat": 48.782045,
    "long": 2.252859
  },
  {
    "name": "D\u00e9chetterie",
    "address": "Avenue Georges-Pompidou, 91370 Verri\u00e8res-le-Buisson",
    "type": "Environnement",
    "lat": 48.750388,
    "long": 2.277703
  },
  {
    "name": "Ecole maternelle de la Ferme",
    "address": "5 rue de la Ferme, 92350 Le Plessis-Robinson",
    "type": "Ecole maternelle",
    "lat": 48.781189,
    "long": 2.260447
  },
  {
    "name": "Ecole Raymond Aumont",
    "address": "3 all\u00e9e Robert Debr\u00e9, 92350 Le Plessis-Robinson",
    "type": "Ecole maternelle et \u00e9l\u00e9mentaire",
    "lat": 48.775413,
    "long": 2.252751
  },
  {
    "name": "Eglise Saint Jean Baptiste",
    "address": "Place de la Mairie, 92350 Le Plessis-Robinson",
    "type": "Lieux de culte",
    "lat": 48.782408,
    "long": 2.261709
  },
  {
    "name": "Eglise Sainte-Marie-Magdeleine",
    "address": "Rue Andr\u00e9-Le-N\u00f4tre, 92350 Le Plessis-Robinson",
    "type": "Lieux de culte",
    "lat": 48.778802,
    "long": 2.254496
  },
  {
    "name": "Emploi Hauts-de-Bi\u00e8vre",
    "address": "42, avenue Aristide Briand, 92350 Le Plessis-Robinson",
    "type": "Emploi & insertion",
    "lat": 48.780186,
    "long": 2.258254
  },
  {
    "name": "Espace Brossolette",
    "address": "2, rue Pierre Brossolette, 92350 Le Plessis-Robinson",
    "type": "Installations sportives",
    "lat": 48.777359,
    "long": 2.259123
  },
  {
    "name": "Espace Omnisport",
    "address": "Avenue Edouard-Herriot Place Woking, 92350 Le Plessis-Robinson",
    "type": "Installations sportives",
    "lat": 48.782171,
    "long": 2.252244
  },
  {
    "name": "Espace P\u00e9ri",
    "address": "Avenue Gabriel-P\u00e9ri, 92350 Le Plessis-Robinson",
    "type": "Installations sportives",
    "lat": 48.777098,
    "long": 2.261687
  },
  {
    "name": "Etang Colbert",
    "address": "rue du Tour de l'Etang, 92350 Le Plessis-Robinson",
    "type": "Parcs et jardins",
    "lat": 48.784549,
    "long": 2.269921
  },
  {
    "name": "Expoville",
    "address": "8 avenue de la Lib\u00e9ration, 92350 Le Plessis-Robinson",
    "type": "Equipements culturels",
    "lat": 48.776823,
    "long": 2.256267
  },
  {
    "name": "Fran\u00e7ois Peatrik",
    "address": "Place de l\u2019Auditorium, 92350 Le Plessis-Robinson",
    "type": "Accueil p\u00e9riscolaire maternel",
    "lat": 48.781003,
    "long": 2.270514
  },
  {
    "name": "Fran\u00e7ois Peatrik",
    "address": "Place de l'auditorium, 92350 Le Plessis-Robinson",
    "type": "Centre de loisirs maternel",
    "lat": 48.781003,
    "long": 2.270514
  },
  {
    "name": "Fran\u00e7ois Peatrik \u00e9l\u00e9mentaire",
    "address": "Place de l\u2019Auditorium, 92350 Le Plessis-Robinson",
    "type": "Ecole \u00e9l\u00e9mentaire",
    "lat": 48.781003,
    "long": 2.270514
  },
  {
    "name": "Fran\u00e7ois Peatrik maternelle",
    "address": "Place de l\u2019Auditorium, 92350 Le Plessis-Robinson",
    "type": "Ecole maternelle",
    "lat": 48.781003,
    "long": 2.270514
  },
  {
    "name": "Free Park",
    "address": "Rue du Loup Pendu, 92350 Le Plessis-Robinson",
    "type": "Installations sportives",
    "lat": 48.777186,
    "long": 2.253053
  },
  {
    "name": "Groupe scolaire Jean Jaur\u00e8s",
    "address": "9, rue des Suisses, 92350 Le Plessis-Robinson",
    "type": "Ecole maternelle et \u00e9l\u00e9mentaire",
    "lat": 48.787172,
    "long": 2.265852
  },
  {
    "name": "Groupe scolaire Louis Pergaud",
    "address": "4, rue Louis-Pergaud, 92350 Le Plessis-Robinson",
    "type": "Ecole maternelle et \u00e9l\u00e9mentaire",
    "lat": 48.788993,
    "long": 2.269392
  },
  {
    "name": "Gymnase Anatole France",
    "address": "Rue de la Ferme, 92350 Le Plessis-Robinson",
    "type": "Installations sportives",
    "lat": 48.781189,
    "long": 2.260447
  },
  {
    "name": "Gymnase du Pierrier",
    "address": "10, rue Louis-Pergaud, 92350 Le Plessis-Robinson",
    "type": "Installations sportives",
    "lat": 48.789319,
    "long": 2.270123
  },
  {
    "name": "Gymnase Fran\u00e7ois Peatrik",
    "address": "Rue Fran\u00e7ois Peatrik, 92350 Le Plessis-Robinson",
    "type": "Installations sportives",
    "lat": 48.781929,
    "long": 2.271118
  },
  {
    "name": "Gymnase Henri Wallon",
    "address": "Rue du Capitaine Facq, 92350 Le Plessis-Robinson",
    "type": "Installations sportives",
    "lat": 48.776743,
    "long": 2.263392
  },
  {
    "name": "Halte Garderie : L'\u00eele aux tr\u00e9sors",
    "address": "9, rue Pierre-d\u2019Artagnan, 92350 Le Plessis-Robinson",
    "type": "Halte Garderie",
    "lat": 48.780892,
    "long": 2.258962
  },
  {
    "name": "Henri Wallon",
    "address": "21 rue du Capitaine Facq, 92350 Le Plessis-Robinson",
    "type": "Accueil p\u00e9riscolaire maternel",
    "lat": 48.777336,
    "long": 2.26363
  },
  {
    "name": "Henri Wallon",
    "address": "21, rue du Capitaine Facq, 92350 Le Plessis-Robinson",
    "type": "Centre de loisirs maternel",
    "lat": 48.777336,
    "long": 2.26363
  },
  {
    "name": "Henri Wallon \u00e9l\u00e9mentaire",
    "address": "21, rue du Capitaine-Facq, 92350 Le Plessis-Robinson",
    "type": "Ecole \u00e9l\u00e9mentaire",
    "lat": 48.777336,
    "long": 2.26363
  },
  {
    "name": "Henri Wallon maternelle",
    "address": "21, rue du Capitaine-Facq, 92350 Le Plessis-Robinson",
    "type": "Ecole maternelle",
    "lat": 48.777336,
    "long": 2.26363
  },
  {
    "name": "H\u00f4pital Marie Lannelongue",
    "address": "133 avenue de la R\u00e9sistance, 92350 Le Plessis-Robinson",
    "type": "Hopitaux",
    "lat": 48.783263,
    "long": 2.27454
  },
  {
    "name": "H\u00f4tel de Ville",
    "address": "3, place de la Mairie, 92350 Le Plessis-Robinson",
    "type": "Services municipaux",
    "lat": 48.782325,
    "long": 2.262225
  },
  {
    "name": "Jardin de Robinson",
    "address": "Place des Alli\u00e9s, 92350 Le Plessis-Robinson",
    "type": "Parcs et jardins",
    "lat": 48.775055,
    "long": 2.258779
  },
  {
    "name": "Jardin de Sertillanges",
    "address": "avenue du G\u00e9n\u00e9ral Leclerc, 92350 Le Plessis-Robinson",
    "type": "Parcs et jardins",
    "lat": 48.783098,
    "long": 2.264906
  },
  {
    "name": "Jardins de L\u2019H\u00f4tel de Ville",
    "address": "Parc du 11 novembre 1918, 92350 Le Plessis-Robinson",
    "type": "Parcs et jardins",
    "lat": 48.781226,
    "long": 2.271821
  },
  {
    "name": "Jardins Familiaux",
    "address": "Avenue Pierre Brossolette, 92350 Le Plessis-Robinson",
    "type": "Parcs et jardins",
    "lat": 48.776515,
    "long": 2.260684
  },
  {
    "name": "Jean Jaur\u00e8s",
    "address": "9 rue des Suisses, 92350 Le Plessis-Robinson",
    "type": "Accueil p\u00e9riscolaire maternel",
    "lat": 48.787172,
    "long": 2.265852
  },
  {
    "name": "Joliot-Curie",
    "address": "2, all\u00e9e Robert-Debr\u00e9, 92350 Le Plessis-Robinson",
    "type": "Accueil p\u00e9riscolaire maternel",
    "lat": 48.775414,
    "long": 2.252751
  },
  {
    "name": "Joliot-Curie",
    "address": "2, all\u00e9e Robert-Debr\u00e9, 92350 Le Plessis-Robinson",
    "type": "Centre de loisirs maternel",
    "lat": 48.775414,
    "long": 2.252751
  },
  {
    "name": "Joliot-Curie \u00e9l\u00e9mentaire",
    "address": "3, all\u00e9e Robert Debr\u00e9, 92350 Le Plessis-Robinson",
    "type": "Ecole \u00e9l\u00e9mentaire",
    "lat": 48.775414,
    "long": 2.252751
  },
  {
    "name": "Joliot-Curie maternelle",
    "address": "3, all\u00e9e Robert Debr\u00e9, 92350 Le Plessis-Robinson",
    "type": "Ecole maternelle",
    "lat": 48.775414,
    "long": 2.252751
  },
  {
    "name": "L'Ile aux Bambins",
    "address": "3 rue de l\u2019Orangerie, 92350 Le Plessis-Robinson",
    "type": "Cr\u00e8che",
    "lat": 48.782366,
    "long": 2.263506
  },
  {
    "name": "L'Orangerie",
    "address": "Rue le la Mairie, 92350 Le Plessis-Robinson",
    "type": "Equipements culturels",
    "lat": 48.782408,
    "long": 2.261709
  },
  {
    "name": "La Ferme",
    "address": "5, rue de l'Orangerie, 92350 Le Plessis-Robinson",
    "type": "Accueil p\u00e9riscolaire maternel",
    "lat": 48.781489,
    "long": 2.261933
  },
  {
    "name": "La Ferme",
    "address": "3, rue de l'Orangerie, 92350 Le Plessis-Robinson",
    "type": "Centre de loisirs maternel",
    "lat": 48.782366,
    "long": 2.263506
  },
  {
    "name": "La pouponni\u00e8re\r\nAide Sociale \u00c0 l'Enfance",
    "address": "5 avenue du G\u00e9n\u00e9ral Leclerc, 92350 Le Plessis-Robinson",
    "type": "Enfance",
    "lat": 48.782889,
    "long": 2.262825
  },
  {
    "name": "Le Club",
    "address": "1, Place Henri-Barbusse, 92350 Le Plessis-Robinson",
    "type": "Services municipaux",
    "lat": 48.782032,
    "long": 2.260435
  },
  {
    "name": "Le Grand Large",
    "address": "1, Place de la R\u00e9sistance, 92350 Le Plessis-Robinson",
    "type": "Services municipaux",
    "lat": 48.778677,
    "long": 2.253059
  },
  {
    "name": "Le Pierrier",
    "address": "10, rue Louis-Pergaud, 92350 Le Plessis-Robinson",
    "type": "Centre de loisirs primaire",
    "lat": 48.789319,
    "long": 2.270123
  },
  {
    "name": "Le Relais d\u2019Assistantes Parentales",
    "address": "4-6 rue de la Ferme, 92350 Le Plessis-Robinson",
    "type": "Enfance",
    "lat": 48.781254,
    "long": 2.260409
  },
  {
    "name": "Les Dauphins",
    "address": "3 rue Auguste-Rodin, 92350 Le Plessis-Robinson",
    "type": "Cr\u00e8che",
    "lat": 48.777416,
    "long": 2.252519
  },
  {
    "name": "Les Etoiles de Mer",
    "address": "20/22 avenue de la Lib\u00e9ration, 92350 Le Plessis-Robinson",
    "type": "Cr\u00e8che",
    "lat": 48.777634,
    "long": 2.253889
  },
  {
    "name": "Les Loups de Mer",
    "address": "9, avenue Roger Salengro, 92350 CHATENAY-MALABRY",
    "type": "Cr\u00e8che",
    "lat": 48.775391,
    "long": 2.277779
  },
  {
    "name": "Les P'tits Mousses",
    "address": "9, Chemin de la C\u00f4te Sainte Catherine, 92350 Le Plessis-Robinson",
    "type": "Cr\u00e8che",
    "lat": 48.784589,
    "long": 2.256476
  },
  {
    "name": "Les P'tits Pirates",
    "address": "34 rue Edmond-About, 92350 Le Plessis-Robinson",
    "type": "Cr\u00e8che",
    "lat": 48.782292,
    "long": 2.275634
  },
  {
    "name": "Les petits mariniers (BABILOU)",
    "address": "81/83 avenue Edouard Herriot, 92350 Le Plessis-Robinson",
    "type": "Cr\u00e8che",
    "lat": 48.78219,
    "long": 2.251864
  },
  {
    "name": "Les Poissons-clowns",
    "address": "6 rue de la Ferme, 92350 Le Plessis-Robinson",
    "type": "Cr\u00e8che",
    "lat": 48.781254,
    "long": 2.260409
  },
  {
    "name": "Lieu d'accueil parents-enfants (LAEP)",
    "address": "4-6, rue de la Ferme, 92350 Le Plessis-Robinson",
    "type": "Enfance",
    "lat": 48.781254,
    "long": 2.260409
  },
  {
    "name": "Louis Hachette",
    "address": "Place des D\u00e9port\u00e9s et Intern\u00e9s de la R\u00e9sistance, 92350 Le Plessis-Robinson",
    "type": "Accueil p\u00e9riscolaire maternel",
    "lat": 48.778304,
    "long": 2.252929
  },
  {
    "name": "Louis Hachette",
    "address": "Place des d\u00e9portes et Intern\u00e9s de la R\u00e9sistance, 92350 Le Plessis-Robinson",
    "type": "Centre de loisirs maternel",
    "lat": 48.778304,
    "long": 2.252929
  },
  {
    "name": "Louis Hachette",
    "address": "Place des d\u00e9portes et Intern\u00e9s de la R\u00e9sistance, 92350 Le Plessis-Robinson",
    "type": "Centre de loisirs primaire",
    "lat": 48.778304,
    "long": 2.252929
  },
  {
    "name": "Louis Hachette \u00e9l\u00e9mentaire",
    "address": "Place des D\u00e9port\u00e9s et Intern\u00e9s de la R\u00e9sistance, 92350 Le Plessis-Robinson",
    "type": "Ecole \u00e9l\u00e9mentaire",
    "lat": 48.778304,
    "long": 2.252929
  },
  {
    "name": "Louis Hachette maternelle",
    "address": "Place des D\u00e9port\u00e9s et Intern\u00e9s de la R\u00e9sistance, 92350 Le Plessis-Robinson",
    "type": "Ecole maternelle",
    "lat": 48.778304,
    "long": 2.252929
  },
  {
    "name": "Louis Pergaud",
    "address": "4, rue Louis Pergaud, 92350 Le Plessis-Robinson",
    "type": "Accueil p\u00e9riscolaire maternel",
    "lat": 48.788993,
    "long": 2.269392
  },
  {
    "name": "Louis Pergaud",
    "address": "4, rue Louis-Pergaud, 92350 Le Plessis-Robinson",
    "type": "Centre de loisirs maternel",
    "lat": 48.788993,
    "long": 2.269392
  },
  {
    "name": "Lyc\u00e9e Montesquieu",
    "address": "21, rue du Capitaine Facq, 92350 Le Plessis-Robinson",
    "type": "Lyc\u00e9e",
    "lat": 48.777336,
    "long": 2.26363
  },
  {
    "name": "L\u2019Ile aux tr\u00e9sors",
    "address": "9 rue Pierre-d\u2019Artagnan",
    "type": "Cr\u00e8che",
    "lat": 48.780892,
    "long": 2.258962
  },
  {
    "name": "Maison de la Musique et de la Danse",
    "address": "70, rue du Moulin Fidel, 92350 Le Plessis-Robinson",
    "type": "Equipements culturels",
    "lat": 48.77508,
    "long": 2.261799
  },
  {
    "name": "Maison des Entreprises et de l\u2019Emploi des Hauts-de-Bi\u00e8vre",
    "address": "42, avenue Aristide-Briand, 92160 Antony",
    "type": "Emploi & insertion",
    "lat": 48.755582,
    "long": 2.306017
  },
  {
    "name": "March\u00e9",
    "address": "Place de la Lib\u00e9ration, 92350 Le Plessis-Robinson",
    "type": "Pratique / infos utiles",
    "lat": 48.777372,
    "long": 2.255344
  },
  {
    "name": "Notaire",
    "address": "30, avenue Charles de Gaulle, 92350 Le Plessis-Robinson",
    "type": "Pratique / infos utiles",
    "lat": 48.779307,
    "long": 2.2608
  },
  {
    "name": "P.M.I (Protection Maternelle et Infantile)- Centre de planning familial",
    "address": "Villa des Hortensias, 92350 Le Plessis-Robinson",
    "type": "Enfance",
    "lat": 48.780117,
    "long": 2.262045
  },
  {
    "name": "Parc de la Vall\u00e9e aux Loups",
    "address": "Parc de la Vall\u00e9e aux Loups, 92350 Le Plessis-Robinson",
    "type": "Parcs et jardins",
    "lat": 48.781226,
    "long": 2.271821
  },
  {
    "name": "Parc des Sports",
    "address": "Avenue Paul-Langevin et avenue Galil\u00e9e, 92350 Le Plessis-Robinson",
    "type": "Installations sportives",
    "lat": 48.782045,
    "long": 2.252859
  },
  {
    "name": "Parc du Moulin Fidel",
    "address": "Rue du Moulin Fidel, 92350 Le Plessis-Robinson",
    "type": "Parcs et jardins",
    "lat": 48.774464,
    "long": 2.259691
  },
  {
    "name": "Parc Henri Sellier",
    "address": "Parc Henri Sellier, 92350 Le Plessis-Robinson",
    "type": "Parcs et jardins",
    "lat": 48.782425,
    "long": 2.260114
  },
  {
    "name": "Piscine du Hameau",
    "address": "5, rue Blaise Pascal, 92350 Le Plessis-Robinson",
    "type": "Installations sportives",
    "lat": 48.781922,
    "long": 2.248022
  },
  {
    "name": "Police Municipale",
    "address": "Cour de l'H\u00f4tel de Ville, 92350 Le Plessis-Robinson",
    "type": "Services municipaux",
    "lat": 48.786287,
    "long": 2.267956
  },
  {
    "name": "Police Nationale",
    "address": "3 bis, rue Pierre d'Artagnan, 92350 Le Plessis-Robinson",
    "type": "Pratique / infos utiles",
    "lat": 48.781747,
    "long": 2.259137
  },
  {
    "name": "Poste de Plessis les Halles",
    "address": "4, avenue de la Lib\u00e9ration, 92350 Le Plessis-Robinson",
    "type": "Pratique / infos utiles",
    "lat": 48.777511,
    "long": 2.256546
  },
  {
    "name": "Poste du C\u0153ur de Ville",
    "address": "8 Grande Rue, 92350 Le Plessis-Robinson",
    "type": "Pratique / infos utiles",
    "lat": 48.780809,
    "long": 2.262327
  },
  {
    "name": "Promenade de la Cit\u00e9 jardins",
    "address": "Promenade des berges, 92350 Le Plessis-Robinson",
    "type": "Parcs et jardins",
    "lat": 48.779396,
    "long": 2.257259
  },
  {
    "name": "Propri\u00e9t\u00e9 du  Moulin Fidel",
    "address": "Rue du Moulin Fidel, 92350 Le Plessis-Robinson",
    "type": "Equipements culturels",
    "lat": 48.774464,
    "long": 2.259691
  },
  {
    "name": "Relais Assistante Maternelle",
    "address": "4-6, rue de la Ferme, 92350 Le Plessis-Robinson",
    "type": "Enfance",
    "lat": 48.781254,
    "long": 2.260409
  },
  {
    "name": "R\u00e9sidence  d\u2019Artagnan",
    "address": "1, square Jacques-Ange-Gabriel, 92350 Le Plessis-Robinson",
    "type": "R\u00e9sidence de personnes \u00e2g\u00e9es",
    "lat": 48.780324,
    "long": 2.254219
  },
  {
    "name": "R\u00e9sidence  Paulette Spiess",
    "address": "23, rue de la Raye Tortue, 92350 Le Plessis-Robinson",
    "type": "R\u00e9sidence de personnes \u00e2g\u00e9es",
    "lat": 48.779743,
    "long": 2.256625
  },
  {
    "name": "R\u00e9sidence Henri Sellier",
    "address": "123, rue de Malabry., 92350 Le Plessis-Robinson",
    "type": "R\u00e9sidence de personnes \u00e2g\u00e9es",
    "lat": 48.779285,
    "long": 2.272736
  },
  {
    "name": "Salle de Musculation",
    "address": "Rue Louis-Pergaud, 92350 Le Plessis-Robinson",
    "type": "Installations sportives",
    "lat": 48.78919,
    "long": 2.269474
  },
  {
    "name": "Salle des F\u00eates",
    "address": "14, avenue Galil\u00e9e, 92350 Le Plessis-Robinson",
    "type": "Services municipaux",
    "lat": 48.778401,
    "long": 2.246009
  },
  {
    "name": "Sapeurs Pompiers",
    "address": "287, avenue du G\u00e9n\u00e9ral de Gaulle, 92350 CLAMART",
    "type": "Pratique / infos utiles",
    "lat": 48.785141,
    "long": 2.251136
  },
  {
    "name": "S\u00e9curit\u00e9 sociale",
    "address": "5, rue Pierre d\u2019Artagnan, 92350 Le Plessis-Robinson",
    "type": "Pratique / infos utiles",
    "lat": 48.781471,
    "long": 2.259126
  },
  {
    "name": "Sertillanges",
    "address": "30, avenue du G\u00e9n\u00e9ral-Leclerc, 92350 Le Plessis-Robinson",
    "type": "Centre de loisirs primaire",
    "lat": 48.78302,
    "long": 2.264102
  },
  {
    "name": "Service de l\u2019Urbanisme",
    "address": "14, avenue Galil\u00e9e, 92350 Le Plessis-Robinson",
    "type": "Services municipaux",
    "lat": 48.778401,
    "long": 2.246009
  },
  {
    "name": "Services Techniques",
    "address": "14, avenue Galil\u00e9e, 92350 Le Plessis-Robinson",
    "type": "Services municipaux",
    "lat": 48.778401,
    "long": 2.246009
  },
  {
    "name": "Skate Park",
    "address": "9 avenue Paul-Langevin, 92350 Le Plessis-Robinson",
    "type": "Installations sportives",
    "lat": 48.779976,
    "long": 2.251252
  },
  {
    "name": "Tennis club",
    "address": "Avenue Paul-Langevin et avenue Galil\u00e9e B.P. 34, 92350 Le Plessis-Robinson",
    "type": "Installations sportives",
    "lat": 48.782045,
    "long": 2.252859
  },
  {
    "name": "Th\u00e9\u00e2tre du Coteau",
    "address": "10, rue Louis-Pergaud, 92350 Le Plessis-Robinson",
    "type": "Equipements culturels",
    "lat": 48.789319,
    "long": 2.270123
  }
]